[
  {"id": "CZ0100", "name": "Praha-město", "long": 14.484584506296187, "lat": 50.06418562105118},
  {"id": "CZ0311", "name": "České Budějovice", "long": 14.4998725, "lat": 48.9983881},
  {"id": "CZ0312", "name": "Český Krumlov", "long": 14.2883856, "lat": 48.7472831},
  {"id": "CZ0313", "name": "Jindřichův Hradec", "long": 15.0217231, "lat": 49.1135811},
  {"id": "CZ0314", "name": "Písek", "long": 14.209211354936878, "lat": 49.374909798758374},
  {"id": "CZ0315", "name": "Prachatice", "long": 13.8736517, "lat": 48.9911797},
  {"id": "CZ0316", "name": "Strakonice", "long": 13.909252378959765, "lat": 49.278854053078014},
  {"id": "CZ0317", "name": "Tábor", "long": 14.689805085975012, "lat": 49.347711301137174},
  {"id": "CZ0641", "name": "Blansko", "long": 16.637545295383628, "lat": 49.4511208465134},
  {"id": "CZ0644", "name": "Břeclav", "long": 16.789838555361406, "lat": 48.82188809004592},
  {"id": "CZ0642", "name": "Brno-město", "long": 16.59252670678227, "lat": 49.19523520903154},
  {"id": "CZ0643", "name": "Brno-venkov", "long": 16.4334661, "lat": 49.1243669},
  {"id": "CZ0645", "name": "Hodonín", "long": 17.225251359205988, "lat": 48.9540682044396},
  {"id": "CZ0646", "name": "Vyškov", "long": 16.9822647014628, "lat": 49.245660146077476},
  {"id": "CZ0647", "name": "Znojmo", "long": 16.068861825642603, "lat": 48.89109613320859},
  {"id": "CZ0411", "name": "Cheb", "long": 12.4701483, "lat": 50.0713883},
  {"id": "CZ0412", "name": "Karlovy Vary", "long": 13.0359442, "lat": 50.2192389},
  {"id": "CZ0413", "name": "Sokolov", "long": 12.6239569, "lat": 50.2227536},
  {"id": "CZ0631", "name": "Havlíčkův Brod", "long": 15.548148704297622, "lat": 49.652027661872644},
  {"id": "CZ0632", "name": "Jihlava", "long": 15.562254624559708, "lat": 49.31174908897091},
  {"id": "CZ0633", "name": "Pelhřimov", "long": 15.165288922414621, "lat": 49.41965323652146},
  {"id": "CZ0634", "name": "Třebíč", "long": 15.907045436590215, "lat": 49.138252736382945},
  {"id": "CZ0635", "name": "Žďár nad Sázavou", "long": 16.099246472876693, "lat": 49.48001160597439},
  {"id": "CZ0521", "name": "Hradec Králové", "long": 15.69299328499947, "lat": 50.20610578509345},
  {"id": "CZ0522", "name": "Jičín", "long": 15.410367943371432, "lat": 50.40809790824967},
  {"id": "CZ0523", "name": "Náchod", "long": 16.1697942, "lat": 50.4821217},
  {"id": "CZ0524", "name": "Rychnov nad Kněžnou", "long": 16.2604314, "lat": 50.2086933},
  {"id": "CZ0525", "name": "Trutnov", "long": 15.8154853, "lat": 50.5589581},
  {"id": "CZ0511", "name": "Česká Lípa", "long": 14.6317083, "lat": 50.6565689},
  {"id": "CZ0512", "name": "Jablonec nad Nisou", "long": 15.2441961, "lat": 50.7400744},
  {"id": "CZ0513", "name": "Liberec", "long": 14.9860175, "lat": 50.7852442},
  {"id": "CZ0514", "name": "Semily", "long": 15.4254706, "lat": 50.5973294},
  {"id": "CZ0801", "name": "Bruntál", "long": 17.4359686, "lat": 50.0431747},
  {"id": "CZ0802", "name": "Frýdek-Místek", "long": 18.64618642138393, "lat": 49.65155433116863},
  {"id": "CZ0803", "name": "Karviná", "long": 18.4769231, "lat": 49.8416706},
  {"id": "CZ0804", "name": "Nový Jičín", "long": 18.022980970494892, "lat": 49.670960943683305},
  {"id": "CZ0805", "name": "Opava", "long": 17.8973944, "lat": 49.8947797},
  {"id": "CZ0806", "name": "Ostrava", "long": 18.24709251948767, "lat": 49.82542504583087},
  {"id": "CZ0711", "name": "Jeseník", "long": 17.1558172, "lat": 50.2543742},
  {"id": "CZ0712", "name": "Olomouc", "long": 17.2637754844053, "lat": 49.665083223885865},
  {"id": "CZ0714", "name": "Přerov", "long": 17.5537982297231, "lat": 49.49391281863293},
  {"id": "CZ0713", "name": "Prostějov", "long": 17.0487006, "lat": 49.4896850},
  {"id": "CZ0715", "name": "Šumperk", "long": 16.9580633, "lat": 49.9796328},
  {"id": "CZ0531", "name": "Chrudim", "long": 15.858156462068921, "lat": 49.83413244176795},
  {"id": "CZ0532", "name": "Pardubice", "long": 15.740614395013601, "lat": 50.056805194624324},
  {"id": "CZ0533", "name": "Svitavy", "long": 16.460210075479075, "lat": 49.73769546750354},
  {"id": "CZ0534", "name": "Ústí nad Orlicí", "long": 16.4856511, "lat": 49.9831650},
  {"id": "CZ0321", "name": "Domažlice", "long": 12.8848822, "lat": 49.4861167},
  {"id": "CZ0322", "name": "Klatovy", "long": 13.4122258, "lat": 49.3002008},
  {"id": "CZ0323", "name": "Plzeň-město", "long": 13.374470152753494, "lat": 49.738678627825806},
  {"id": "CZ0324", "name": "Plzeň-jih", "long": 13.41453159817274, "lat": 49.58066877817466},
  {"id": "CZ0325", "name": "Plzeň-sever", "long": 13.294901105351663, "lat": 49.878635077487615},
  {"id": "CZ0326", "name": "Rokycany", "long": 13.669190593149482, "lat": 49.78711976676151},
  {"id": "CZ0327", "name": "Tachov", "long": 12.7722722, "lat": 49.7689936},
  {"id": "CZ0201", "name": "Benešov", "long": 14.754556642204038, "lat": 49.69186071489679},
  {"id": "CZ0202", "name": "Beroun", "long": 14.002509872118639, "lat": 49.892730410893755},
  {"id": "CZ0203", "name": "Kladno", "long": 14.092590719461453, "lat": 50.199934184551246},
  {"id": "CZ0204", "name": "Kolín", "long": 15.053610007489322, "lat": 50.01491280227412},
  {"id": "CZ0205", "name": "Kutná Hora", "long": 15.214013888041187, "lat": 49.85448220570882},
  {"id": "CZ0206", "name": "Mělník", "long": 14.51099622706504, "lat": 50.331978362611785},
  {"id": "CZ0207", "name": "Mladá Boleslav", "long": 14.884005416385722, "lat": 50.37905349731445},
  {"id": "CZ0208", "name": "Nymburk", "long": 15.096106902035805, "lat": 50.17567617242987},
  {"id": "CZ0209", "name": "Praha-východ", "long": 14.6674139, "lat": 49.9442956},
  {"id": "CZ020A", "name": "Praha-západ", "long": 14.3652897, "lat": 49.8912408},
  {"id": "CZ020B", "name": "Příbram", "long": 14.105670803170703, "lat": 49.66977785874328},
  {"id": "CZ020C", "name": "Rakovník", "long": 13.754250610886471, "lat": 50.08862135771017},
  {"id": "CZ0422", "name": "Chomutov", "long": 13.3106022, "lat": 50.4226625},
  {"id": "CZ0421", "name": "Děčín", "long": 14.3048650, "lat": 50.7887172},
  {"id": "CZ0423", "name": "Litoměřice", "long": 14.178305897875898, "lat": 50.461681743085165},
  {"id": "CZ0424", "name": "Louny", "long": 13.632310526358658, "lat": 50.28135854098464},
  {"id": "CZ0425", "name": "Most", "long": 13.6182194, "lat": 50.5310322},
  {"id": "CZ0426", "name": "Teplice", "long": 13.7994939, "lat": 50.6112750},
  {"id": "CZ0427", "name": "Ústí nad Labem", "long": 14.0302069, "lat": 50.6844206},
  {"id": "CZ0721", "name": "Kroměříž", "long": 17.46577716827393, "lat": 49.29266058921814},
  {"id": "CZ0722", "name": "Uherské Hradiště", "long": 17.57153669993083, "lat": 49.041768603854706},
  {"id": "CZ0723", "name": "Vsetín", "long": 18.05861045394742, "lat": 49.39214093205059},
  {"id": "CZ0724", "name": "Zlín", "long": 17.78601365619236, "lat": 49.19103681305309}
]
